[
 
  {"id_dane": "52", "nombre": "Nari침o", "latitud": 1.2177, "longitud": -77.3868},
  {"id_dane": "52001", "nombre": "Pasto", "latitud": 1.21389, "longitud": -77.28056},
 
  
  {"id_dane": "76", "nombre": "Valle del Cauca", "latitud": 3.9167, "longitud": -76.5333},
  {"id_dane": "76001", "nombre": "Cali", "latitud": 3.4516, "longitud": -76.5320},
  {"id_dane": "76520", "nombre": "Palmira", "latitud": 3.535, "longitud": -76.3033},
  
  {"id_dane": "11", "nombre": "Bogot치 D.C.", "latitud": 4.7110, "longitud": -74.0721},
  {"id_dane": "11001", "nombre": "Bogot치", "latitud": 4.7110, "longitud": -74.0721},
  
  {"id_dane": "08", "nombre": "Atl치ntico", "latitud": 10.7, "longitud": -74.9},
  {"id_dane": "08001", "nombre": "Barranquilla", "latitud": 10.9639, "longitud": -74.7964}
]
