[
  {"id_dane": "05", "nombre": "Antioquia", "latitud": 6.9443, "longitud": -75.1091},
  {"id_dane": "05001", "nombre": "Medellín", "latitud": 6.2442, "longitud": -75.5812},
  {"id_dane": "05088", "nombre": "Bello", "latitud": 6.3323, "longitud": -75.5582},
  {"id_dane": "05360", "nombre": "Itagüí", "latitud": 6.1762, "longitud": -75.6094},
  
  {"id_dane": "76", "nombre": "Valle del Cauca", "latitud": 3.9167, "longitud": -76.5333},
  {"id_dane": "76001", "nombre": "Cali", "latitud": 3.4516, "longitud": -76.5320},
  {"id_dane": "76520", "nombre": "Palmira", "latitud": 3.535, "longitud": -76.3033},
  
  {"id_dane": "11", "nombre": "Bogotá D.C.", "latitud": 4.7110, "longitud": -74.0721},
  {"id_dane": "11001", "nombre": "Bogotá", "latitud": 4.7110, "longitud": -74.0721},
  
  {"id_dane": "08", "nombre": "Atlántico", "latitud": 10.7, "longitud": -74.9},
  {"id_dane": "08001", "nombre": "Barranquilla", "latitud": 10.9639, "longitud": -74.7964}
]
